[
  {
    "id": 1,
    "name": "Emil Cioran ",
    "lat": 45.790048,
    "lng": 24.147038,
    "totalSpots": 54,
    "freeSpots": 54,
    "pricePerHour": 1.5,
    "openHours": "08:00-22:00"
  },
  {
    "id": 2,
    "name": "Victoriei ",
    "lat": 45.790667,
    "lng": 24.145435,
    "totalSpots": 50,
    "freeSpots": 50,
    "pricePerHour": 1.5,
    "openHours": "08:00-22:00"
  },
  {
    "id": 3,
    "name": "Ilie Macelaru ",
    "lat": 45.789624,
    "lng": 24.145266,
    "totalSpots": 41,
    "freeSpots": 41,
    "pricePerHour": 1.5,
    "openHours": "08:00-22:00"
  },

  {
    "id": 4,
    "name": "Piata Unirii ",
    "lat": 45.789350,
    "lng":  24.147780,
    "totalSpots": 42,
    "freeSpots": 42,
    "pricePerHour": 1.5,
    "openHours": "08:00-22:00"
  },

  {
    "id": 5,
    "name": "Casa Modei ",
    "lat": 45.790079, 
    "lng": 24.149500,
    "totalSpots": 20,
    "freeSpots": 20,
    "pricePerHour": 1.5,
    "openHours": "08:00-22:00"
  },

  {
    "id": 6,
    "name": "Radu Stanca Theatre ",
    "lat": 45.791601, 
    "lng": 24.150402,
    "totalSpots": 160,
    "freeSpots": 160,
    "pricePerHour": 3,
    "openHours": "00:00-24:00"
  },

  {
    "id": 7,
    "name": "Cazarma 90 ",
    "lat": 45.792077, 
    "lng": 24.149272,
    "totalSpots": 205,
    "freeSpots": 205,
    "pricePerHour": 3,
    "openHours": "00:00-24:00"
  },

  {
    "id": 8,
    "name": "Piata Unirii - Boulevard",
    "lat": 45.792314, 
    "lng":  24.148347,
    "totalSpots": 112,
    "freeSpots": 112,
    "pricePerHour": 2.5,
    "openHours": "08:00-22:00"
  },

  {
    "id": 9,
    "name": "Luther Hospital",
    "lat": 45.792920,
    "lng": 24.147692,
    "totalSpots": 30,
    "freeSpots": 30,
    "pricePerHour": 2.5,
    "openHours": "08:00-22:00"
  },

  {
    "id": 10,
    "name": "Ioan Lupas",
    "lat": 45.793483,
    "lng": 24.147706,
    "totalSpots": 72,
    "freeSpots": 72,
    "pricePerHour": 2.5,
    "openHours": "08:00-22:00"
  },

  {
    "id": 11,
    "name": "Tribunei",
    "lat": 45.793819,
    "lng": 24.147993,
    "totalSpots": 72,
    "freeSpots": 72,
    "pricePerHour": 2.5,
    "openHours": "08:00-22:00"
  },

  {
    "id": 12,
    "name": "Mitropoliei",
    "lat": 45.795050,
    "lng": 24.148117,
    "totalSpots": 113,
    "freeSpots": 113,
    "pricePerHour": 2.5,
    "openHours": "08:00-22:00"
  },

  {
    "id": 13,
    "name": "Al. Xenopol",
    "lat": 45.794887,
    "lng": 24.149379,
    "totalSpots": 79,
    "freeSpots": 79,
    "pricePerHour": 2.5,
    "openHours": "08:00-22:00"
  },

  {
    "id": 14,
    "name": "Bastionului",
    "lat": 45.795082,
    "lng": 24.145641,
    "totalSpots": 27,
    "freeSpots": 27,
    "pricePerHour": 2.5,
    "openHours": "08:00-22:00"
  },

  {
    "id": 15,
    "name": "Gong Theatre",
    "lat": 45.796594,
    "lng": 24.147519,
    "totalSpots": 65,
    "freeSpots": 65,
    "pricePerHour": 2.5,
    "openHours": "08:00-22:00"
  },

  {
    "id": 16,
    "name": "Mos Ion Roata",
    "lat": 45.797208,
    "lng": 24.147916,
    "totalSpots": 31,
    "freeSpots": 31,
    "pricePerHour": 2.5,
    "openHours": "08:00-22:00"
  },

  {
    "id": 17,
    "name": "Turnului",
    "lat": 45.798863,
    "lng": 24.146827,
    "totalSpots": 51,
    "freeSpots": 51,
    "pricePerHour": 2.5,
    "openHours": "00:00-24:00"
  },

  {
    "id": 18,
    "name": "Faurului",
    "lat": 45.798859,
    "lng": 24.149443,
    "totalSpots": 47,
    "freeSpots": 47,
    "pricePerHour": 2.5,
    "openHours": "00:00-24:00"
  },

  {
    "id": 19,
    "name": "Ocnei",
    "lat": 45.801177,
    "lng": 24.150437,
    "totalSpots": 69,
    "freeSpots": 69,
    "pricePerHour": 2.5,
    "openHours": "00:00-24:00"
  },

  {
    "id": 20,
    "name": "Sibiu Court",
    "lat": 45.802393,
    "lng": 24.150762,
    "totalSpots": 102,
    "freeSpots": 102,
    "pricePerHour": 3.5,
    "openHours": "00:00-24:00"
  },

  {
    "id": 21,
    "name": "9 Mai",
    "lat": 45.800018,
    "lng": 24.153338,
    "totalSpots": 147,
    "freeSpots": 147,
    "pricePerHour": 2.5,
    "openHours": "08:00-22:00"
  },

  {
    "id": 22,
    "name": "Constitutiei",
    "lat": 45.798064,
    "lng": 24.157469,
    "totalSpots": 60,
    "freeSpots": 60,
    "pricePerHour": 2.5,
    "openHours": "08:00-22:00"
  },

  {
    "id": 23,
    "name": "Magheru",
    "lat": 45.798557,
    "lng": 24.156139,
    "totalSpots": 51,
    "freeSpots": 51,
    "pricePerHour": 2.5,
    "openHours": "08:00-22:00"
  },

  {
    "id": 24,
    "name": "Avram Iancu",
    "lat": 45.798270,
    "lng": 24.154025,
    "totalSpots": 33,
    "freeSpots": 33,
    "pricePerHour": 2.5,
    "openHours": "08:00-22:00"
  },

  {
    "id": 25,
    "name": "Pompeiu Onofreiu",
    "lat": 45.795872,
    "lng": 24.156092,
    "totalSpots": 25,
    "freeSpots": 25,
    "pricePerHour": 2.5,
    "openHours": "08:00-22:00"
  },

  {
    "id": 26,
    "name": "Coposu-Haller",
    "lat": 45.795254,
    "lng": 24.156274,
    "totalSpots": 27,
    "freeSpots": 27,
    "pricePerHour": 2.5,
    "openHours": "08:00-22:00"
  },

{
    "id": 27,
    "name": "Coposu-Thalia",
    "lat": 45.794487,
    "lng": 24.154690,
    "totalSpots": 30,
    "freeSpots": 30,
    "pricePerHour": 2.5,
    "openHours": "08:00-22:00"
  },

  {
    "id": 28,
    "name": "Coposu-Cetatii",
    "lat": 45.793380,
    "lng": 24.152733,
    "totalSpots": 29,
    "freeSpots": 29,
    "pricePerHour": 2.5,
    "openHours": "08:00-22:00"
  },

  {
    "id": 29,
    "name": "Cetatii",
    "lat": 45.793211,
    "lng": 24.150993,
    "totalSpots": 44,
    "freeSpots": 44,
    "pricePerHour": 2.5,
    "openHours": "08:00-22:00"
  },

  {
    "id": 30,
    "name": "Tipografilor",
    "lat": 45.794362,
    "lng": 24.152473,
    "totalSpots": 91,
    "freeSpots": 91,
    "pricePerHour": 2.5,
    "openHours": "08:00-22:00"
  },

  {
    "id": 31,
    "name": "Arhivelor",
    "lat": 45.795477, 
    "lng": 24.152309,
    "totalSpots": 16,
    "freeSpots": 16,
    "pricePerHour": 2.5,
    "openHours": "08:00-22:00"
  },

  {
    "id": 32,
    "name": "Timotei Popovici",
    "lat": 45.795432, 
    "lng": 24.153237,
    "totalSpots": 66,
    "freeSpots": 66,
    "pricePerHour": 2.5,
    "openHours": "08:00-22:00"
  },

  {
    "id": 33,
    "name": "Gheorghe Lazar",
    "lat": 45.796152,  
    "lng": 24.153790,
    "totalSpots": 28,
    "freeSpots": 28,
    "pricePerHour": 2.5,
    "openHours": "08:00-22:00"
  },

  {
    "id": 34,
    "name": "Filarmonicii",
    "lat": 45.796360, 
    "lng": 24.154962,
    "totalSpots": 43,
    "freeSpots": 43,
    "pricePerHour": 2.5,
    "openHours": "08:00-22:00"
  },
  
  {
    "id": 35,
    "name": "Turnului - Cibin",
    "lat": 45.799405, 
    "lng": 24.145585,
    "totalSpots": 5,
    "freeSpots": 5,
    "pricePerHour": 2.5,
    "openHours": "08:00-22:00"
  },

  {
    "id": 36,
    "name": "Piata Cibin",
    "lat": 45.799382, 
    "lng": 24.144020,
    "totalSpots": 91,
    "freeSpots": 91,
    "pricePerHour": 2.5,
    "openHours": "08:00-22:00"
  },

  {
    "id": 37,
    "name": "Masarilor",
    "lat": 45.798103, 
    "lng": 24.144796,
    "totalSpots": 19,
    "freeSpots": 19,
    "pricePerHour": 2.5,
    "openHours": "08:00-22:00"
  },

  {
    "id": 38,
    "name": "Darstelor",
    "lat": 45.797874, 
    "lng": 24.144290,
    "totalSpots": 48,
    "freeSpots": 48,
    "pricePerHour": 2.5,
    "openHours": "08:00-22:00"
  },

  {
    "id": 39,
    "name": "Morilor",
    "lat": 45.797822, 
    "lng": 24.143722,
    "totalSpots": 53,
    "freeSpots": 53,
    "pricePerHour": 2.5,
    "openHours": "08:00-22:00"
  },

  {
    "id": 40,
    "name": "Malului",
    "lat": 45.798236,
    "lng": 24.143134,
    "totalSpots": 33,
    "freeSpots": 33,
    "pricePerHour": 2.5,
    "openHours": "08:00-22:00"
  },

  {
    "id": 41,
    "name": "Socului - Train station",
    "lat": 45.799262,
    "lng": 24.162076,
    "totalSpots": 35,
    "freeSpots": 35,
    "pricePerHour": 1.5,
    "openHours": "08:00-22:00"
  },

  {
    "id": 42,
    "name": "1 decembrie - Train station",
    "lat": 45.799930,
    "lng": 24.160333,
    "totalSpots": 144,
    "freeSpots": 144,
    "pricePerHour": 1.5,
    "openHours": "08:00-22:00"
  },

  {
    "id": 43,
    "name": "Magheru",
    "lat": 45.799444,
    "lng": 24.159206,
    "totalSpots": 31,
    "freeSpots": 31,
    "pricePerHour": 1.5,
    "openHours": "08:00-22:00"
  },

  {
    "id": 44,
    "name": "Oborul de vite",
    "lat": 45.814918,
    "lng": 24.150229,
    "totalSpots": 48,
    "freeSpots": 48,
    "pricePerHour": 1.5,
    "openHours": "08:00-22:00"
  },

  {
    "id": 45,
    "name": "Drumul Ocnei",
    "lat": 45.815382,
    "lng": 24.148738,
    "totalSpots": 78,
    "freeSpots": 78,
    "pricePerHour": 1.5,
    "openHours": "08:00-22:00"
  },

  {
    "id": 46,
    "name": "Calea Surii Mari",
    "lat": 45.816608,
    "lng": 24.149499,
    "totalSpots": 198,
    "freeSpots": 198,
    "pricePerHour": 1.5,
    "openHours": "08:00-22:00"
  },

  {
    "id": 47,
    "name": "Zidarilor",
    "lat": 45.810642,
    "lng": 24.135795,
    "totalSpots": 21,
    "freeSpots": 21,
    "pricePerHour": 1.5,
    "openHours": "08:00-22:00"
  },

  {
    "id": 48,
    "name": "Lacul lui Binder 1",
    "lat": 45.809633,
    "lng": 24.132598,
     "totalSpots": 43,
     "freeSpots": 43,
     "pricePerHour": 1.5,
     "openHours": "08:00-22:00"
  },

  {
    "id": 49,
    "name": "Lacul lui Binder 2",
    "lat": 45.811370,
    "lng": 24.134982,
    "totalSpots": 10,
    "freeSpots": 10,
    "pricePerHour": 1.5,
    "openHours": "08:00-22:00"
  },

  {
    "id": 50,
    "name": "Lacul lui Binder Parking lot",
    "lat": 45.811591, 
    "lng": 24.135456,
    "totalSpots": 41,
    "freeSpots": 41,
    "pricePerHour": 3,
    "openHours": "00:00-24:00"
  },

  {
    "id": 51,
    "name": "Constantin Noica",
    "lat": 45.791131,
    "lng": 24.154489, 
     "totalSpots": 76,
     "freeSpots": 76,
     "pricePerHour": 1.5,
     "openHours": "08:00-22:00"
  },

  {
    "id": 52,
    "name": "Stefan cel Mare",
    "lat": 45.790127,
    "lng": 24.155038,
    "totalSpots": 86,
    "freeSpots": 86,
    "pricePerHour": 1.5,
    "openHours": "08:00-22:00"
  },

  {
    "id": 53,
    "name": "Revolutiei - Police Station",
    "lat": 45.789312,
    "lng": 24.153397,
     "totalSpots": 51,
     "freeSpots": 51,
     "pricePerHour": 1.5,
     "openHours": "08:00-22:00"
  },

  {
    "id": 54,
    "name": "Dumbravii 1",
    "lat": 45.786809,
    "lng": 24.149333,
     "totalSpots": 148,
     "freeSpots": 148,
     "pricePerHour": 1.5,
     "openHours": "08:00-22:00"
  },

  {
    "id": 55,
    "name": "O. Goga - Transylvania Hall",
    "lat": 45.782651,
    "lng": 24.145124,
     "totalSpots": 127,
     "freeSpots": 127,
     "pricePerHour": 2.5,
     "openHours": "00:00-24:00"
  },

  {
    "id": 56,
    "name": "Mihai Viteazu 1",
    "lat": 45.781237,
    "lng": 24.151123,
     "totalSpots": 216,
     "freeSpots": 216,
     "pricePerHour": 1.5,
     "openHours": "08:00-22:00"
  },

    {
    "id": 57,
    "name": "Dumbravii 2",
    "lat": 45.774250, 
    "lng": 24.141413,
     "totalSpots": 120,
     "freeSpots": 120,
     "pricePerHour": 1.5,
     "openHours": "08:00-22:00"
  },
  
  {
    "id": 58,
    "name": "Mihai Viteazu 2",
    "lat": 45.778987, 
    "lng": 24.155411,
     "totalSpots": 128,
     "freeSpots": 128,
     "pricePerHour": 1.5,
     "openHours": "08:00-22:00" 
  },

  {
    "id": 59,
    "name": "Hipodrom Parking Lot",
    "lat": 45.778069, 
    "lng": 24.155952,
     "totalSpots": 227,
     "freeSpots": 227,
     "pricePerHour": 1.5,
     "openHours": "08:00-22:00"
  }

]